[
  {
    "title": "AUDITORIO NACIONAL",
    "description": "504",
    "latitud": 19.4396005,
    "longitud": -99.2252742
  },
  {
    "title": "INSTITUTO DE MODELADO Y ACELERACIÃ“N DE NEGOCIOS",
    "description": "503",
    "latitud": 19.4396928,
    "longitud": -99.2251736
  },
  {
    "title": "BANAMEX",
    "description": "505",
    "latitud": 19.4395208,
    "longitud": -99.2252232
  },
  {
    "title": "MOLL",
    "description": "506",
    "latitud": 19.4394753,
    "longitud": -99.2251655
  },
  {
    "title": "PARQUE ALTO IMPACTO",
    "description": "508",
    "latitud": 19.4394057,
    "longitud": -99.2250757
  },
  {
    "title": "REINVENTA",
    "description": "509",
    "latitud": 19.4393223,
    "longitud": -99.2249738
  },
  {
    "title": "KICHINK!",
    "description": "501",
    "latitud": 19.4394335,
    "longitud": -99.2248665
  },
  {
    "title": "HOSPITAL ALTO IMPACTO",
    "description": "502",
    "latitud": 19.4395524,
    "longitud": -99.2249979
  },
  {
    "title": "IMPACTO SOCIAL",
    "description": "511",
    "latitud": 19.4392034,
    "longitud": -99.2248705
  },
  {
    "title": "RESERVA AMBIENTAL",
    "description": "510",
    "latitud": 19.4392426,
    "longitud": -99.2248303
  },
  {
    "title": "AEROPUERTO ALTO IMPACTO",
    "description": "500",
    "latitud": 19.4393159,
    "longitud": -99.224739
  },
  {
    "title": "NEURONA DIGITAL",
    "description": "507",
    "latitud": 19.4395676,
    "longitud": -99.2251226
  }
]