[
  {
    "title": "INSTITUTO MEXICANO DE LA PROPIEDAD INDUSTRIAL",
    "description": "415",
    "latitud": 19.4393703,
    "longitud": -99.2254512
  },
  {
    "title": "SECRETARÍA DE ECONOMÍA (FINNOVA)",
    "description": "416",
    "latitud": 19.4393526,
    "longitud": -99.2254297
  },
  {
    "title": "CONACYT",
    "description": "417",
    "latitud": 19.4393311,
    "longitud": -99.2254083
  },
  {
    "title": "FUNTEC, A.C.",
    "description": "418",
    "latitud": 19.4393096,
    "longitud": -99.2253868
  },
  {
    "title": "FUMEC",
    "description": "419",
    "latitud": 19.4392906,
    "longitud": -99.2253654
  },
  {
    "title": "INFOTEC",
    "description": "420",
    "latitud": 19.4392717,
    "longitud": -99.2253439
  },
  {
    "title": "INNOVATION CONNECT",
    "description": "422A",
    "latitud": 19.4392527,
    "longitud": -99.2253225
  },
  {
    "title": "DESARROLLO TECNOLOGICO Y NEGOCIOS, S.C.",
    "description": "422B",
    "latitud": 19.4392337,
    "longitud": -99.225301
  },
  {
    "title": "ENTERPRISESOFT MÉXICO",
    "description": "422C",
    "latitud": 19.4392135,
    "longitud": -99.2252809
  },
  {
    "title": "SOFTRONIC TECHNOLOGIES",
    "description": "422D",
    "latitud": 19.439192,
    "longitud": -99.2252608
  },
  {
    "title": "AMÉRICA SOLAR",
    "description": "422E",
    "latitud": 19.4391743,
    "longitud": -99.2252393
  },
  {
    "title": "UNAM MOBILE",
    "description": "422F",
    "latitud": 19.4391541,
    "longitud": -99.2252178
  },
  {
    "title": "MBTA2R",
    "description": "422G",
    "latitud": 19.4391351,
    "longitud": -99.2251964
  },
  {
    "title": "OPENSHOPEN MÉXICO",
    "description": "422G",
    "latitud": 19.4391149,
    "longitud": -99.2251763
  },
  {
    "title": "GOOGLE MÉXICO",
    "description": "424",
    "latitud": 19.4390972,
    "longitud": -99.2251562
  },
  {
    "title": "ETXE DISEÑO",
    "description": "402",
    "latitud": 19.4394892,
    "longitud": -99.2255102
  },
  {
    "title": "ETXE DISEÑO",
    "description": "400A",
    "latitud": 19.4394335,
    "longitud": -99.2254539
  },
  {
    "title": "HUB ILAB VERACRUZ",
    "description": "401",
    "latitud": 19.439541,
    "longitud": -99.2254284
  },
  {
    "title": "CENTRO DE INVESTIGACIÓNDE ESTERILIZACIÓN Y ENVASE",
    "description": "422H",
    "latitud": 19.4396372,
    "longitud": -99.2253989
  },
  {
    "title": "INFRARURAL",
    "description": "422I",
    "latitud": 19.4396169,
    "longitud": -99.2253788
  },
  {
    "title": "ADVANCED SCIENTIFIC APPLICATIONS DE MEXICO, S.A. DE C.V.",
    "description": "422J",
    "latitud": 19.4395967,
    "longitud": -99.22536
  },
  {
    "title": "IRONBIT S.A. DE C.V.",
    "description": "422K",
    "latitud": 19.4395777,
    "longitud": -99.2253385
  },
  {
    "title": "BLUEMESSAGING MÉXICO, SAPI DE C.V.",
    "description": "422L",
    "latitud": 19.43956,
    "longitud": -99.2253171
  },
  {
    "title": "ARIA SPECIALTIES",
    "description": "422M",
    "latitud": 19.439541,
    "longitud": -99.225297
  },
  {
    "title": "GRUPO ERCUS",
    "description": "422N",
    "latitud": 19.4395221,
    "longitud": -99.2252755
  },
  {
    "title": "AEROVANTECH S.A.P.I. DE C.V.",
    "description": "422O",
    "latitud": 19.4395006,
    "longitud": -99.2252554
  },
  {
    "title": "INNOVATION CONNECT",
    "description": "407",
    "latitud": 19.4394247,
    "longitud": -99.2252085
  },
  {
    "title": "INNOVATION CONNECT",
    "description": "406",
    "latitud": 19.439369,
    "longitud": -99.2251508
  },
  {
    "title": "INNOVATION CONNECT",
    "description": "405",
    "latitud": 19.4393121,
    "longitud": -99.2250931
  },
  {
    "title": "INNOVATION CONNECT",
    "description": "403",
    "latitud": 19.4392666,
    "longitud": -99.2250234
  },
  {
    "title": "INSTITUTO NACIONAL DEL EMPRENDEDOR",
    "description": "400B",
    "latitud": 19.4393893,
    "longitud": -99.2253251
  },
  {
    "title": "SECRETARÍA DE ECONOMÍA (FINNOVA)",
    "description": "421",
    "latitud": 19.4393033,
    "longitud": -99.2252152
  },
  {
    "title": "LET IN TECH SC",
    "description": "426A",
    "latitud": 19.4392236,
    "longitud": -99.225183
  },
  {
    "title": "LET IN TECH SC",
    "description": "426B",
    "latitud": 19.4392021,
    "longitud": -99.2251535
  },
  {
    "title": "PROFESOR CHIFLADO",
    "description": "426C",
    "latitud": 19.4391781,
    "longitud": -99.2251253
  },
  {
    "title": "GRESMEX SA DE CV",
    "description": "426D",
    "latitud": 19.4391566,
    "longitud": -99.2250971
  },
  {
    "title": "AUA SISSTEMAS",
    "description": "427A",
    "latitud": 19.4392527,
    "longitud": -99.2251535
  },
  {
    "title": "POLEC",
    "description": "427B",
    "latitud": 19.4392312,
    "longitud": -99.2251253
  },
  {
    "title": "PHYLLABS.",
    "description": "427C",
    "latitud": 19.4392072,
    "longitud": -99.2250945
  },
  {
    "title": "FIXYOU",
    "description": "427D",
    "latitud": 19.4391857,
    "longitud": -99.2250676
  },
  {
    "title": "INSTITUTO NACIONAL DEL EMPRENDEDOR",
    "description": "425",
    "latitud": 19.4391541,
    "longitud": -99.2251253
  },
  {
    "title": "INSTITUTO NACIONAL DEL EMPRENDEDOR",
    "description": "404",
    "latitud": 19.439216,
    "longitud": -99.2250583
  },
  {
    "title": "REAGLE TECHNOLOGIES",
    "description": "408A",
    "latitud": 19.4390706,
    "longitud": -99.2251199
  },
  {
    "title": "TONALLI",
    "description": "408B",
    "latitud": 19.4390516,
    "longitud": -99.2250998
  },
  {
    "title": "CONSULTWARE",
    "description": "408C",
    "latitud": 19.4390314,
    "longitud": -99.2250811
  },
  {
    "title": "VETELIA ELECTRIC BIKES",
    "description": "408D",
    "latitud": 19.4390124,
    "longitud": -99.2250596
  },
  {
    "title": "BIOHAND",
    "description": "408E",
    "latitud": 19.4389922,
    "longitud": -99.2250381
  },
  {
    "title": "GRILLO",
    "description": "408F",
    "latitud": 19.4389732,
    "longitud": -99.2250167
  },
  {
    "title": "429",
    "description": "429",
    "latitud": 19.4392148,
    "longitud": -99.224963
  },
  {
    "title": "FABRICADORA",
    "description": "414",
    "latitud": 19.4391578,
    "longitud": -99.2249215
  },
  {
    "title": "FABRICADORA",
    "description": "412",
    "latitud": 19.4390959,
    "longitud": -99.2249979
  },
  {
    "title": "FABRICADORA",
    "description": "413",
    "latitud": 19.4390668,
    "longitud": -99.2249402
  },
  {
    "title": "FABRICADORA",
    "description": "410",
    "latitud": 19.4391212,
    "longitud": -99.225065
  },
  {
    "title": "FABRICADORA",
    "description": "410",
    "latitud": 19.4391654,
    "longitud": -99.2250153
  }
]