[
  {
    "title": "PRO MÉXICO MD",
    "description": "607",
    "latitud": 19.4396637,
    "longitud": -99.2249992
  },
  {
    "title": "ESCENARIO MÉXICO DIGITAL",
    "description": "606",
    "latitud": 19.4397257,
    "longitud": -99.2249389
  },
  {
    "title": "DATOS.GOB.MX",
    "description": "605",
    "latitud": 19.4398281,
    "longitud": -99.2249174
  },
  {
    "title": "DATOS.GOB.MX",
    "description": "604",
    "latitud": 19.4397661,
    "longitud": -99.2248544
  },
  {
    "title": "DATOS.GOB.MX",
    "description": "603",
    "latitud": 19.4397294,
    "longitud": -99.2248101
  },
  {
    "title": "EMPRENDEDORES CÍVICOS",
    "description": "601",
    "latitud": 19.4396308,
    "longitud": -99.2247203
  },
  {
    "title": "GOB.MX",
    "description": "608",
    "latitud": 19.4395689,
    "longitud": -99.2248517
  },
  {
    "title": "RETOS PÚBLICOS",
    "description": "602",
    "latitud": 19.4394993,
    "longitud": -99.2248142
  },
  {
    "title": "600",
    "description": "600",
    "latitud": 19.4394525,
    "longitud": -99.2246439
  }
]