[
  {
    "title": "FOFOMI FIDEICOMISO DE FOMENTO MINERO",
    "description": "1042",
    "latitud": 19.4408094,
    "longitud": -99.2234905
  },
  {
    "title": "FIRA",
    "description": "1044",
    "latitud": 19.4407487,
    "longitud": -99.2234676
  },
  {
    "title": "FIDE FIDEICOMISO PARA EL AHORRO DE ENERGÍA ELÉCTRICA",
    "description": "1043",
    "latitud": 19.4407829,
    "longitud": -99.2234301
  },
  {
    "title": "EL FINANCIERO",
    "description": "1060",
    "latitud": 19.4407488,
    "longitud": -99.2234195
  },
  {
    "title": "FINMEX",
    "description": "1032",
    "latitud": 19.4407084,
    "longitud": -99.2233819
  },
  {
    "title": "HIR PYME",
    "description": "1033",
    "latitud": 19.4406882,
    "longitud": -99.2233592
  },
  {
    "title": "SERFIMEX CAPITAL",
    "description": "1014",
    "latitud": 19.4406274,
    "longitud": -99.2233363
  },
  {
    "title": "AKTIVA",
    "description": "1013",
    "latitud": 19.4406589,
    "longitud": -99.2233081
  },
  {
    "title": "FINANCIERA EMPRENDEDORES",
    "description": "1016",
    "latitud": 19.4406059,
    "longitud": -99.2233121
  },
  {
    "title": "ÚJULE S.A. DE C.V. SOFOM. ENR.",
    "description": "1015",
    "latitud": 19.4406362,
    "longitud": -99.2232866
  },
  {
    "title": "PRONAFIM",
    "description": "1041",
    "latitud": 19.440817,
    "longitud": -99.2233858
  },
  {
    "title": "GENTERA",
    "description": "1029",
    "latitud": 19.440764,
    "longitud": -99.2233309
  },
  {
    "title": "SCOTIABANK",
    "description": "1030",
    "latitud": 19.4407449,
    "longitud": -99.2233082
  },
  {
    "title": "INNOVATEUR",
    "description": "1010",
    "latitud": 19.4406906,
    "longitud": -99.2232813
  },
  {
    "title": "FACTOR EXPRÉS",
    "description": "1009",
    "latitud": 19.4407171,
    "longitud": -99.2232544
  },
  {
    "title": "VECTOR DE CRECIMIENTO EMPRESARIAL",
    "description": "1012",
    "latitud": 19.4406665,
    "longitud": -99.2232545
  },
  {
    "title": "INTEGRA",
    "description": "1011",
    "latitud": 19.4406944,
    "longitud": -99.2232276
  },
  {
    "title": "BANCOMER",
    "description": "1040",
    "latitud": 19.4408765,
    "longitud": -99.2233229
  },
  {
    "title": "BANCOMEXT",
    "description": "1028",
    "latitud": 19.4408145,
    "longitud": -99.2232558
  },
  {
    "title": "BEAMONTE INVESTMENTS ",
    "description": "1006",
    "latitud": 19.4407526,
    "longitud": -99.223217
  },
  {
    "title": "ALTA VENTURES MÉXICO Y PORTAFOLIO DE INVERSIÓN ",
    "description": "1005",
    "latitud": 19.4407741,
    "longitud": -99.2231928
  },
  {
    "title": "PRESTADERO.COM",
    "description": "1008",
    "latitud": 19.4407285,
    "longitud": -99.2231888
  },
  {
    "title": "KUBO FINANCIERO",
    "description": "1007",
    "latitud": 19.4407576,
    "longitud": -99.2231646
  },
  {
    "title": "ELABORATUM FINANCIERA",
    "description": "1031",
    "latitud": 19.4408133,
    "longitud": -99.2231525
  },
  {
    "title": "CLIP",
    "description": "1056",
    "latitud": 19.4407867,
    "longitud": -99.2231271
  },
  {
    "title": "FONDESO FONDO PARA EL DESARROLLO SOCIAL DE LA CIUDAD DE MÉXICO ",
    "description": "1003",
    "latitud": 19.4408284,
    "longitud": -99.2231096
  },
  {
    "title": "BANREGIO",
    "description": "1059",
    "latitud": 19.440874,
    "longitud": -99.2232196
  },
  {
    "title": "HSBC",
    "description": "1025",
    "latitud": 19.4409018,
    "longitud": -99.2231901
  },
  {
    "title": "AMERICAN EXPRESS",
    "description": "1027",
    "latitud": 19.4408499,
    "longitud": -99.2231914
  },
  {
    "title": "AFIRME",
    "description": "1026",
    "latitud": 19.4408778,
    "longitud": -99.2231606
  },
  {
    "title": "BANORTE",
    "description": "1024",
    "latitud": 19.4409309,
    "longitud": -99.2231298
  },
  {
    "title": "PARQUE",
    "description": "1039",
    "latitud": 19.4409702,
    "longitud": -99.2232611
  },
  {
    "title": "NACIONAL FINANCIERA",
    "description": "1058",
    "latitud": 19.4408954,
    "longitud": -99.2235255
  },
  {
    "title": "NACIONAL FINANCIERA",
    "description": "1057",
    "latitud": 19.4410118,
    "longitud": -99.2234073
  },
  {
    "title": "FOCIR",
    "description": "1004",
    "latitud": 19.4410751,
    "longitud": -99.2233282
  },
  {
    "title": "CAME CRÉDTIO Y AHORRA A TU MEDIDA",
    "description": "1054",
    "latitud": 19.4411383,
    "longitud": -99.2232625
  },
  {
    "title": "CORPORATIVA COSPA, S.A. DE  C.V. SOFOM E.N.R.",
    "description": "1053",
    "latitud": 19.4411535,
    "longitud": -99.2232397
  },
  {
    "title": "FINAMIGO",
    "description": "1055",
    "latitud": 19.4411193,
    "longitud": -99.2232826
  },
  {
    "title": "MERCADODECREDITO.COM",
    "description": "1038",
    "latitud": 19.4411054,
    "longitud": -99.2232075
  },
  {
    "title": "BANAMEX",
    "description": "1037",
    "latitud": 19.4410498,
    "longitud": -99.2231606
  },
  {
    "title": "BANCO SANTANDER",
    "description": "1023",
    "latitud": 19.4409827,
    "longitud": -99.2230842
  },
  {
    "title": "BIENESTAR, PRÉSTAMOS Y AHORRO",
    "description": "1052",
    "latitud": 19.4411838,
    "longitud": -99.2232102
  },
  {
    "title": "FINCOMÚN",
    "description": "1051",
    "latitud": 19.4412117,
    "longitud": -99.2231794
  },
  {
    "title": "GRUPO FINANCIERO ASERTA",
    "description": "1036",
    "latitud": 19.4411623,
    "longitud": -99.2231513
  },
  {
    "title": "ACE FIANZAS MOTERREY",
    "description": "1035",
    "latitud": 19.4411257,
    "longitud": -99.223115
  },
  {
    "title": "GNP",
    "description": "1034",
    "latitud": 19.4410889,
    "longitud": -99.2230761
  },
  {
    "title": "BOLSA MEXICANA DE VALORES",
    "description": "1018",
    "latitud": 19.4410232,
    "longitud": -99.2230318
  },
  {
    "title": "CETES DIRECTO",
    "description": "1017",
    "latitud": 19.4410472,
    "longitud": -99.2230077
  },
  {
    "title": "BURÓ DE CRÉDITO",
    "description": "1002",
    "latitud": 19.4409587,
    "longitud": -99.2229742
  },
  {
    "title": "CONDUSEF",
    "description": "1001",
    "latitud": 19.4409852,
    "longitud": -99.2229473
  },
  {
    "title": "UNIÓN DE CRÉDITO PARA LA CONTADURÍA PÚBLICA. S.A. DE C.V",
    "description": "1050",
    "latitud": 19.4412382,
    "longitud": -99.2231512
  },
  {
    "title": "CONCRECES",
    "description": "1049",
    "latitud": 19.4412609,
    "longitud": -99.2231231
  },
  {
    "title": "CREDIT UNION",
    "description": "1046",
    "latitud": 19.4411964,
    "longitud": -99.2231083
  },
  {
    "title": "PAGOFÁCIL ",
    "description": "1045",
    "latitud": 19.4412192,
    "longitud": -99.2230802
  },
  {
    "title": "CYMA",
    "description": "1047",
    "latitud": 19.44118,
    "longitud": -99.2230842
  },
  {
    "title": "LIQUID CAPITAL",
    "description": "1048",
    "latitud": 19.4411978,
    "longitud": -99.2230601
  },
  {
    "title": "1022",
    "description": "1022",
    "latitud": 19.441151,
    "longitud": -99.2230023
  },
  {
    "title": "CRÉDITO REAL",
    "description": "1020",
    "latitud": 19.4411371,
    "longitud": -99.2230386
  },
  {
    "title": "VISA INC.-  IZETTLE",
    "description": "1019",
    "latitud": 19.4411205,
    "longitud": -99.2229957
  },
  {
    "title": "ACIERTO",
    "description": "1021",
    "latitud": 19.4411736,
    "longitud": -99.2230265
  },
  {
    "title": "UNIVERSIDAD FINANCIERA",
    "description": "1000",
    "latitud": 19.441055,
    "longitud": -99.2228979
  },
  {
    "title": "DISTRITO FINANCIERO",
    "description": "",
    "latitud": 19.4408563,
    "longitud": -99.22295
  },
  {
    "title": "GRUPO BURSATIL MEXICANO",
    "description": "1061",
    "latitud": 19.4410851,
    "longitud": -99.2232357
  }
]